{"crs":{"properties":{"name":"urn:ogc:def:crs:OGC:1.3:CRS84"},"type":"name"},"features":[{"geometry":{"coordinates":[21.449551,42.021012],"type":"Point"},"properties":{"address":"Ферид Бајрам 43","cnt":1,"color":"#5e4fa2","id":1,"latitude":42.021012,"longitude":21.449551,"name":"Алдис Трејд","parent":"Алдис Трејд"},"type":"Feature"},{"geometry":{"coordinates":[21.416365,41.993789],"type":"Point"},"properties":{"address":"Народен Фронт 19","cnt":22,"color":"#d53e4f","id":53,"latitude":41.993789,"longitude":21.416365,"name":"Кам маркет-Капиштец","parent":"Кам маркет"},"type":"Feature"},{"geometry":{"coordinates":[21.43479288,42.0199079],"type":"Point"},"properties":{"address":"Ферид Мурати 30","cnt":6,"color":"#abdda4","id":2,"latitude":42.019908,"longitude":21.434793,"name":"Принц","parent":"Принц"},"type":"Feature"},{"geometry":{"coordinates":[21.46905,41.984531],"type":"Point"},"properties":{"address":"бул.Јане Сандански 111","cnt":7,"color":"#e6f598","id":3,"latitude":41.984531,"longitude":21.46905,"name":"Веро 1","parent":"Веро"},"type":"Feature"},{"geometry":{"coordinates":[21.462171,41.971783],"type":"Point"},"properties":{"address":"Борис Трајковски 13","cnt":7,"color":"#e6f598","id":4,"latitude":41.971783,"longitude":21.462171,"name":"Веро 10","parent":"Веро"},"type":"Feature"},{"geometry":{"coordinates":[21.40497,41.997055],"type":"Point"},"properties":{"address":"М.Т.Гологанов 76","cnt":7,"color":"#e6f598","id":5,"latitude":41.997055,"longitude":21.40497,"name":"Веро 2","parent":"Веро"},"type":"Feature"},{"geometry":{"coordinates":[21.42103477,41.99505308],"type":"Point"},"properties":{"address":"М.Т.Гологанов б.б.","cnt":7,"color":"#e6f598","id":6,"latitude":41.995053,"longitude":21.421035,"name":"Веро 5","parent":"Веро"},"type":"Feature"},{"geometry":{"coordinates":[21.43449783,41.99483149],"type":"Point"},"properties":{"address":"Кеј 13-ти Ноември","cnt":7,"color":"#e6f598","id":7,"latitude":41.994831,"longitude":21.434498,"name":"Веро 7-ГТЦ","parent":"Веро"},"type":"Feature"},{"geometry":{"coordinates":[21.444947,42.013826],"type":"Point"},"properties":{"address":"Џон Кенеди 1","cnt":7,"color":"#e6f598","id":8,"latitude":42.013826,"longitude":21.444947,"name":"Веро 8","parent":"Веро"},"type":"Feature"},{"geometry":{"coordinates":[21.41999245,41.98952076],"type":"Point"},"properties":{"address":"Мајка Тереза б.б.","cnt":24,"color":"#9e0142","id":111,"latitude":41.989521,"longitude":21.419992,"name":"Тинекс-Државна болница","parent":"Тинекс"},"type":"Feature"},{"geometry":{"coordinates":[21.325621,42.000637],"type":"Point"},"properties":{"address":"Маршал Тито 10","cnt":24,"color":"#9e0142","id":112,"latitude":42.000637,"longitude":21.325621,"name":"Тинекс-Ѓорче Петров","parent":"Тинекс"},"type":"Feature"},{"geometry":{"coordinates":[21.419576,41.992924],"type":"Point"},"properties":{"address":"Васил Ѓоргов 16","cnt":24,"color":"#9e0142","id":113,"latitude":41.992924,"longitude":21.419576,"name":"Тинекс-Зебра","parent":"Тинекс"},"type":"Feature"},{"geometry":{"coordinates":[21.401201,42.016564],"type":"Point"},"properties":{"address":"Скупи 28","cnt":24,"color":"#9e0142","id":114,"latitude":42.016564,"longitude":21.401201,"name":"Тинекс-Злокуќани","parent":"Тинекс"},"type":"Feature"},{"geometry":{"coordinates":[21.432038,41.989663],"type":"Point"},"properties":{"address":"Св.Кирил и Методиј 1","cnt":24,"color":"#9e0142","id":115,"latitude":41.989663,"longitude":21.432038,"name":"Тинекс-Јужен булевар","parent":"Тинекс"},"type":"Feature"},{"geometry":{"coordinates":[21.39513373,42.00435141],"type":"Point"},"properties":{"address":"Никола Русински б.б.","cnt":24,"color":"#9e0142","id":116,"latitude":42.004351,"longitude":21.395134,"name":"Тинекс-Карпош 3","parent":"Тинекс"},"type":"Feature"},{"geometry":{"coordinates":[21.44474924,41.97962377],"type":"Point"},"properties":{"address":"Борис Трајковски б.б.","cnt":24,"color":"#9e0142","id":117,"latitude":41.979624,"longitude":21.444749,"name":"Тинекс-Кисела Вода 1","parent":"Тинекс"},"type":"Feature"},{"geometry":{"coordinates":[21.44026458,41.97429184],"type":"Point"},"properties":{"address":"Локов б.б.","cnt":24,"color":"#9e0142","id":118,"latitude":41.974292,"longitude":21.440265,"name":"Тинекс-Кисела Вода 2","parent":"Тинекс"},"type":"Feature"},{"geometry":{"coordinates":[21.45443201,41.98986366],"type":"Point"},"properties":{"address":"бул.Јане Сандански б.б.","cnt":24,"color":"#9e0142","id":119,"latitude":41.989864,"longitude":21.454432,"name":"Тинекс-Острово","parent":"Тинекс"},"type":"Feature"},{"geometry":{"coordinates":[21.45323038,41.98184096],"type":"Point"},"properties":{"address":"бул.3-та Македонска Бригада 56","cnt":24,"color":"#9e0142","id":120,"latitude":41.981841,"longitude":21.45323,"name":"Тинекс-Раде Кончар","parent":"Тинекс"},"type":"Feature"},{"geometry":{"coordinates":[21.382369,42.006664],"type":"Point"},"properties":{"address":"Никола Парапунов 27","cnt":24,"color":"#9e0142","id":121,"latitude":42.006664,"longitude":21.382369,"name":"Тинекс-Стара Телевизија","parent":"Тинекс"},"type":"Feature"},{"geometry":{"coordinates":[21.43418296,42.01628349],"type":"Point"},"properties":{"address":"Георги Попхристов б.б.","cnt":24,"color":"#9e0142","id":122,"latitude":42.016283,"longitude":21.434183,"name":"Тинекс-Топанско Поле","parent":"Тинекс"},"type":"Feature"},{"geometry":{"coordinates":[21.37633844,42.0022011],"type":"Point"},"properties":{"address":"Кленоец 69","cnt":24,"color":"#9e0142","id":123,"latitude":42.002201,"longitude":21.376338,"name":"Тинекс-Хром","parent":"Тинекс"},"type":"Feature"},{"geometry":{"coordinates":[21.42766356,41.99693652],"type":"Point"},"properties":{"address":"Васил Главинов 3","cnt":24,"color":"#9e0142","id":124,"latitude":41.996937,"longitude":21.427664,"name":"Тинекс-Центар 2","parent":"Тинекс"},"type":"Feature"},{"geometry":{"coordinates":[21.4911139,41.99613119],"type":"Point"},"properties":{"address":"ул.840 бр.42","cnt":3,"color":"#3288bd","id":10,"latitude":41.996131,"longitude":21.491114,"name":"Гиго трејд 1","parent":"Гиго трејд"},"type":"Feature"},{"geometry":{"coordinates":[21.365698,42.006333],"type":"Point"},"properties":{"address":"Воин Драшковиќ 1","cnt":3,"color":"#3288bd","id":11,"latitude":42.006333,"longitude":21.365698,"name":"Гиго трејд 2","parent":"Гиго трејд"},"type":"Feature"},{"geometry":{"coordinates":[21.42821074,41.98414978],"type":"Point"},"properties":{"address":"Востаничка б.б.","cnt":3,"color":"#3288bd","id":12,"latitude":41.98415,"longitude":21.428211,"name":"Гиго трејд 3","parent":"Гиго трејд"},"type":"Feature"},{"geometry":{"coordinates":[21.4140873,42.0012913],"type":"Point"},"properties":{"address":"Партизанска 1","cnt":1,"color":"#5e4fa2","id":13,"latitude":42.001291,"longitude":21.414087,"name":"Голд","parent":"Голд"},"type":"Feature"},{"geometry":{"coordinates":[21.39202,42.002583],"type":"Point"},"properties":{"address":"Лондонска 4","cnt":2,"color":"#5e4fa2","id":14,"latitude":42.002583,"longitude":21.39202,"name":"Гранап","parent":"Гранап"},"type":"Feature"},{"geometry":{"coordinates":[21.4010845,42.00659794],"type":"Point"},"properties":{"address":"Драгиша Мишовиќ 10","cnt":2,"color":"#5e4fa2","id":15,"latitude":42.006598,"longitude":21.401085,"name":"Гранап","parent":"Гранап"},"type":"Feature"},{"geometry":{"coordinates":[21.452321,41.986344],"type":"Point"},"properties":{"address":"Франклин Рузвелт 4 лок.2","cnt":2,"color":"#5e4fa2","id":16,"latitude":41.986344,"longitude":21.452321,"name":"Денар Дисконт","parent":"Денар Дисконт"},"type":"Feature"},{"geometry":{"coordinates":[21.352961,42.00606],"type":"Point"},"properties":{"address":"Ѓорче Петров 1","cnt":2,"color":"#5e4fa2","id":17,"latitude":42.00606,"longitude":21.352961,"name":"Денар Дисконт","parent":"Денар Дисконт"},"type":"Feature"},{"geometry":{"coordinates":[21.44867762,41.96894981],"type":"Point"},"properties":{"address":"Христо Татарчев 98-а","cnt":15,"color":"#f46d43","id":18,"latitude":41.96895,"longitude":21.448678,"name":"Жито Велес бр.10","parent":"Жито Велес"},"type":"Feature"},{"geometry":{"coordinates":[21.358358,42.006547],"type":"Point"},"properties":{"address":"Ѓорче Петров 31","cnt":15,"color":"#f46d43","id":19,"latitude":42.006547,"longitude":21.358358,"name":"Жито Велес бр.11","parent":"Жито Велес"},"type":"Feature"},{"geometry":{"coordinates":[21.388633,42.008014],"type":"Point"},"properties":{"address":"Вич 6","cnt":24,"color":"#9e0142","id":20,"latitude":42.008014,"longitude":21.388633,"name":"Тинекс-Карпош 4","parent":"Тинекс"},"type":"Feature"},{"geometry":{"coordinates":[21.43646657,41.98883098],"type":"Point"},"properties":{"address":"11-ти Октомври 105","cnt":15,"color":"#f46d43","id":21,"latitude":41.988831,"longitude":21.436467,"name":"Жито Велес бр.13","parent":"Жито Велес"},"type":"Feature"},{"geometry":{"coordinates":[21.33983731,42.00752439],"type":"Point"},"properties":{"address":"Кузман Шапкарев 16","cnt":15,"color":"#f46d43","id":22,"latitude":42.007524,"longitude":21.339837,"name":"Жито Велес бр.15","parent":"Жито Велес"},"type":"Feature"},{"geometry":{"coordinates":[21.434063,42.009969],"type":"Point"},"properties":{"address":"бул.Македонска Косовска бригада 10/36","cnt":15,"color":"#f46d43","id":23,"latitude":42.009969,"longitude":21.434063,"name":"Жито Велес бр.29","parent":"Жито Велес"},"type":"Feature"},{"geometry":{"coordinates":[21.4789165,41.9807004],"type":"Point"},"properties":{"address":"бул.В.С.Бато 1","cnt":15,"color":"#f46d43","id":24,"latitude":41.9807,"longitude":21.478917,"name":"Жито Велес бр.35","parent":"Жито Велес"},"type":"Feature"},{"geometry":{"coordinates":[21.4521104,41.9879816],"type":"Point"},"properties":{"address":"бул.Јане Сандански 70","cnt":15,"color":"#f46d43","id":25,"latitude":41.987982,"longitude":21.45211,"name":"Жито Велес бр.38","parent":"Жито Велес"},"type":"Feature"},{"geometry":{"coordinates":[21.438581,41.976232],"type":"Point"},"properties":{"address":"Димо Хаџи Димов 61","cnt":15,"color":"#f46d43","id":26,"latitude":41.976232,"longitude":21.438581,"name":"Жито Велес бр.39","parent":"Жито Велес"},"type":"Feature"},{"geometry":{"coordinates":[21.448063,42.039713],"type":"Point"},"properties":{"address":"Бутелска 29-б","cnt":15,"color":"#f46d43","id":27,"latitude":42.039713,"longitude":21.448063,"name":"Жито Велес бр.40","parent":"Жито Велес"},"type":"Feature"},{"geometry":{"coordinates":[21.46049816,42.01110084],"type":"Point"},"properties":{"address":"Филип Филиповиќ 2-а","cnt":15,"color":"#f46d43","id":28,"latitude":42.011101,"longitude":21.460498,"name":"Жито Велес бр.43","parent":"Жито Велес"},"type":"Feature"},{"geometry":{"coordinates":[21.3869127,42.0001854],"type":"Point"},"properties":{"address":"Будимпештанска 7","cnt":15,"color":"#f46d43","id":29,"latitude":42.000185,"longitude":21.386913,"name":"Жито Велес бр.45","parent":"Жито Велес"},"type":"Feature"},{"geometry":{"coordinates":[21.4542737,41.9884776],"type":"Point"},"properties":{"address":"бул.Јане Сандански 12","cnt":15,"color":"#f46d43","id":30,"latitude":41.988478,"longitude":21.454274,"name":"Жито Велес бр.46","parent":"Жито Велес"},"type":"Feature"},{"geometry":{"coordinates":[21.467767,41.986558],"type":"Point"},"properties":{"address":"бул.Јане Сандански 67","cnt":15,"color":"#f46d43","id":31,"latitude":41.986558,"longitude":21.467767,"name":"Жито Велес бр.47","parent":"Жито Велес"},"type":"Feature"},{"geometry":{"coordinates":[21.5040118,42.0033711],"type":"Point"},"properties":{"address":"Маџари 47","cnt":15,"color":"#f46d43","id":32,"latitude":42.003371,"longitude":21.504012,"name":"Жито Велес бр.48","parent":"Жито Велес"},"type":"Feature"},{"geometry":{"coordinates":[21.44499063,42.03147615],"type":"Point"},"properties":{"address":"Бутелска б.б.","cnt":15,"color":"#f46d43","id":33,"latitude":42.031476,"longitude":21.444991,"name":"Жито Велес бр.8","parent":"Жито Велес"},"type":"Feature"},{"geometry":{"coordinates":[21.4298235,41.9924341],"type":"Point"},"properties":{"address":"ул.1 б.б.","cnt":11,"color":"#fdae61","id":34,"latitude":41.992434,"longitude":21.429824,"name":"Зур Маркет 1","parent":"Зур Маркет"},"type":"Feature"},{"geometry":{"coordinates":[21.415351,41.998374],"type":"Point"},"properties":{"address":"Христо Смирненски 21","cnt":11,"color":"#fdae61","id":35,"latitude":41.998374,"longitude":21.415351,"name":"Зур Маркет 10","parent":"Зур Маркет"},"type":"Feature"},{"geometry":{"coordinates":[21.4721668,41.9806965],"type":"Point"},"properties":{"address":"бул.В.С.Бато 2-а","cnt":11,"color":"#fdae61","id":36,"latitude":41.980697,"longitude":21.472167,"name":"Зур Маркет 11","parent":"Зур Маркет"},"type":"Feature"},{"geometry":{"coordinates":[21.376004,42.007225],"type":"Point"},"properties":{"address":"Влае 54","cnt":11,"color":"#fdae61","id":37,"latitude":42.007225,"longitude":21.376004,"name":"Зур Маркет 12","parent":"Зур Маркет"},"type":"Feature"},{"geometry":{"coordinates":[21.43269702,41.97616457],"type":"Point"},"properties":{"address":"Пржино б.б.","cnt":11,"color":"#fdae61","id":38,"latitude":41.976165,"longitude":21.432697,"name":"Зур Маркет 3","parent":"Зур Маркет"},"type":"Feature"},{"geometry":{"coordinates":[21.44571,41.987657],"type":"Point"},"properties":{"address":"Венјамин Мачукоски 5","cnt":11,"color":"#fdae61","id":39,"latitude":41.987657,"longitude":21.44571,"name":"Зур Маркет 4","parent":"Зур Маркет"},"type":"Feature"},{"geometry":{"coordinates":[21.41456,41.99931],"type":"Point"},"properties":{"address":"Адолф Циборовски 41","cnt":11,"color":"#fdae61","id":40,"latitude":41.99931,"longitude":21.41456,"name":"Зур Маркет 5","parent":"Зур Маркет"},"type":"Feature"},{"geometry":{"coordinates":[21.47234,41.97041],"type":"Point"},"properties":{"address":"Мите Богоевски б.б.","cnt":11,"color":"#fdae61","id":41,"latitude":41.97041,"longitude":21.47234,"name":"Зур Маркет 6","parent":"Зур Маркет"},"type":"Feature"},{"geometry":{"coordinates":[21.46839,41.990753],"type":"Point"},"properties":{"address":"бул.Асном 52-1/1","cnt":11,"color":"#fdae61","id":42,"latitude":41.990753,"longitude":21.46839,"name":"Зур Маркет 8","parent":"Зур Маркет"},"type":"Feature"},{"geometry":{"coordinates":[21.4941421,41.99768],"type":"Point"},"properties":{"address":"Благоја Стефковски б.б.","cnt":11,"color":"#fdae61","id":43,"latitude":41.99768,"longitude":21.494142,"name":"Зур Маркет 9","parent":"Зур Маркет"},"type":"Feature"},{"geometry":{"coordinates":[21.454838,41.974318],"type":"Point"},"properties":{"address":"Борис Трајковски 72-б","cnt":11,"color":"#fdae61","id":44,"latitude":41.974318,"longitude":21.454838,"name":"Зур Маркет-магацин","parent":"Зур Маркет"},"type":"Feature"},{"geometry":{"coordinates":[21.47691965,41.99257488],"type":"Point"},"properties":{"address":"Индустриска б.б.","cnt":22,"color":"#d53e4f","id":45,"latitude":41.992575,"longitude":21.47692,"name":"Кам маркет","parent":"Кам маркет"},"type":"Feature"},{"geometry":{"coordinates":[21.46246523,42.00258148],"type":"Point"},"properties":{"address":"Јани Лукровски 3","cnt":22,"color":"#d53e4f","id":46,"latitude":42.002581,"longitude":21.462465,"name":"Кам маркет-Автокоманда","parent":"Кам маркет"},"type":"Feature"},{"geometry":{"coordinates":[21.468384,41.986374],"type":"Point"},"properties":{"address":"бул.Јане Сандански 79-а","cnt":22,"color":"#d53e4f","id":47,"latitude":41.986374,"longitude":21.468384,"name":"Кам маркет-Аеродром 3","parent":"Кам маркет"},"type":"Feature"},{"geometry":{"coordinates":[21.459111,41.984812],"type":"Point"},"properties":{"address":"Ангел Димовски 4","cnt":22,"color":"#d53e4f","id":48,"latitude":41.984812,"longitude":21.459111,"name":"Кам маркет-Аеродром 4","parent":"Кам маркет"},"type":"Feature"},{"geometry":{"coordinates":[21.42042696,41.9989159],"type":"Point"},"properties":{"address":"бул.Партизански Одреди 29 ТЦ Буњаковец","cnt":22,"color":"#d53e4f","id":49,"latitude":41.998916,"longitude":21.420427,"name":"Кам маркет-Буњаковец","parent":"Кам маркет"},"type":"Feature"},{"geometry":{"coordinates":[21.37434661,42.01037437],"type":"Point"},"properties":{"address":"Иван Цанкар б.б.","cnt":22,"color":"#d53e4f","id":50,"latitude":42.010374,"longitude":21.374347,"name":"Кам маркет-Влае 2","parent":"Кам маркет"},"type":"Feature"},{"geometry":{"coordinates":[21.43428862,41.99474378],"type":"Point"},"properties":{"address":"Кеј 13-ти Ноември","cnt":22,"color":"#d53e4f","id":51,"latitude":41.994744,"longitude":21.434289,"name":"Кам маркет-ГТЦ","parent":"Кам маркет"},"type":"Feature"},{"geometry":{"coordinates":[21.36639655,42.00757223],"type":"Point"},"properties":{"address":"Ѓорче Петров 12-а","cnt":22,"color":"#d53e4f","id":52,"latitude":42.007572,"longitude":21.366397,"name":"Кам маркет-Ѓорче Петров","parent":"Кам маркет"},"type":"Feature"},{"geometry":{"coordinates":[21.44160032,41.99300548],"type":"Point"},"properties":{"address":"бул.Кочо Рацин 1","cnt":7,"color":"#e6f598","id":9,"latitude":41.993005,"longitude":21.4416,"name":"Веро центар","parent":"Веро"},"type":"Feature"},{"geometry":{"coordinates":[21.385331,42.005097],"type":"Point"},"properties":{"address":"бул.Партизански Одреди 80-а","cnt":22,"color":"#d53e4f","id":54,"latitude":42.005097,"longitude":21.385331,"name":"Кам маркет-Карпош 4","parent":"Кам маркет"},"type":"Feature"},{"geometry":{"coordinates":[21.44519448,41.97240941],"type":"Point"},"properties":{"address":"Христо Татарчев 69","cnt":22,"color":"#d53e4f","id":55,"latitude":41.972409,"longitude":21.445194,"name":"Кам маркет-Кисела Вода","parent":"Кам маркет"},"type":"Feature"},{"geometry":{"coordinates":[21.40101314,41.99382679],"type":"Point"},"properties":{"address":"Козле б.б.","cnt":22,"color":"#d53e4f","id":56,"latitude":41.993827,"longitude":21.401013,"name":"Кам маркет-Козле","parent":"Кам маркет"},"type":"Feature"},{"geometry":{"coordinates":[21.402841,41.995498],"type":"Point"},"properties":{"address":"Братфордска 1","cnt":22,"color":"#d53e4f","id":57,"latitude":41.995498,"longitude":21.402841,"name":"Кам маркет-Козле 2","parent":"Кам маркет"},"type":"Feature"},{"geometry":{"coordinates":[21.50433719,41.99377097],"type":"Point"},"properties":{"address":"Благоја Стефковски 140","cnt":22,"color":"#d53e4f","id":58,"latitude":41.993771,"longitude":21.504337,"name":"Кам маркет-Маџари","parent":"Кам маркет"},"type":"Feature"},{"geometry":{"coordinates":[21.42833948,41.98904629],"type":"Point"},"properties":{"address":"50-та Дивизија б.б.","cnt":22,"color":"#d53e4f","id":59,"latitude":41.989046,"longitude":21.428339,"name":"Кам Маркет-МВР","parent":"Кам маркет"},"type":"Feature"},{"geometry":{"coordinates":[21.47343,41.983236],"type":"Point"},"properties":{"address":"бул.В.С.Бато 13","cnt":22,"color":"#d53e4f","id":60,"latitude":41.983236,"longitude":21.47343,"name":"Кам маркет-Ново Лисиче 1","parent":"Кам маркет"},"type":"Feature"},{"geometry":{"coordinates":[21.4750582,41.97983513],"type":"Point"},"properties":{"address":"бул.В.С.Бато б.б.","cnt":22,"color":"#d53e4f","id":61,"latitude":41.979835,"longitude":21.475058,"name":"Кам маркет-Ново Лисиче 2","parent":"Кам маркет"},"type":"Feature"},{"geometry":{"coordinates":[21.44194365,42.02453466],"type":"Point"},"properties":{"address":"Тале Христов 2","cnt":22,"color":"#d53e4f","id":62,"latitude":42.024535,"longitude":21.441944,"name":"Кам маркет-Скопје Север","parent":"Кам маркет"},"type":"Feature"},{"geometry":{"coordinates":[21.39219834,42.00269341],"type":"Point"},"properties":{"address":"Лондонска б.б.","cnt":22,"color":"#d53e4f","id":63,"latitude":42.002693,"longitude":21.392198,"name":"Кам маркет-Тафталиџе","parent":"Кам маркет"},"type":"Feature"},{"geometry":{"coordinates":[21.43317014,42.01904309],"type":"Point"},"properties":{"address":"Методија Митевски б.б.","cnt":22,"color":"#d53e4f","id":64,"latitude":42.019043,"longitude":21.43317,"name":"Кам маркет-Топанско поле","parent":"Кам маркет"},"type":"Feature"},{"geometry":{"coordinates":[21.451469,41.988649],"type":"Point"},"properties":{"address":"бул.К.Ј.Питу 19 блок.2-42/43","cnt":22,"color":"#d53e4f","id":65,"latitude":41.988649,"longitude":21.451469,"name":"Кам маркет-ТЦ Скопјанка","parent":"Кам маркет"},"type":"Feature"},{"geometry":{"coordinates":[21.432511,41.981059],"type":"Point"},"properties":{"address":"Востаничка 59","cnt":22,"color":"#d53e4f","id":66,"latitude":41.981059,"longitude":21.432511,"name":"Кам маркет-Црниче","parent":"Кам маркет"},"type":"Feature"},{"geometry":{"coordinates":[21.4467341,42.0083599],"type":"Point"},"properties":{"address":"Ордан Чопела 1","cnt":6,"color":"#abdda4","id":68,"latitude":42.00836,"longitude":21.446734,"name":"Принц 3","parent":"Принц"},"type":"Feature"},{"geometry":{"coordinates":[21.4351773,42.0027644],"type":"Point"},"properties":{"address":"Св.Прохор Пчински 142","cnt":6,"color":"#abdda4","id":69,"latitude":42.002764,"longitude":21.435177,"name":"Принц 4","parent":"Принц"},"type":"Feature"},{"geometry":{"coordinates":[21.44495456,42.00534119],"type":"Point"},"properties":{"address":"7-ма Албанска бригада 21-а","cnt":6,"color":"#abdda4","id":70,"latitude":42.005341,"longitude":21.444955,"name":"Принц 5","parent":"Принц"},"type":"Feature"},{"geometry":{"coordinates":[21.4319,42.01597],"type":"Point"},"properties":{"address":"Ѓорѓи Поп Христов 4","cnt":6,"color":"#abdda4","id":71,"latitude":42.01597,"longitude":21.4319,"name":"Принц 6","parent":"Принц"},"type":"Feature"},{"geometry":{"coordinates":[21.34843274,42.03643906],"type":"Point"},"properties":{"address":"ул.100 бр.86","cnt":1,"color":"#5e4fa2","id":72,"latitude":42.036439,"longitude":21.348433,"name":"Ралекс Маркети","parent":"Ралекс Маркети"},"type":"Feature"},{"geometry":{"coordinates":[21.45209621,41.97559237],"type":"Point"},"properties":{"address":"Борис Трајковски 64","cnt":10,"color":"#fee08b","id":73,"latitude":41.975592,"longitude":21.452096,"name":"Рамстор","parent":"Рамстор"},"type":"Feature"},{"geometry":{"coordinates":[21.47628665,41.97955997],"type":"Point"},"properties":{"address":"бул.В.С.Бато 10-а","cnt":10,"color":"#fee08b","id":74,"latitude":41.97956,"longitude":21.476287,"name":"Рамстор","parent":"Рамстор"},"type":"Feature"},{"geometry":{"coordinates":[21.48359,41.984134],"type":"Point"},"properties":{"address":"Февруарски поход 46","cnt":10,"color":"#fee08b","id":75,"latitude":41.984134,"longitude":21.48359,"name":"Рамстор","parent":"Рамстор"},"type":"Feature"},{"geometry":{"coordinates":[21.41837402,41.98585874],"type":"Point"},"properties":{"address":"Тодор Александров 83","cnt":10,"color":"#fee08b","id":76,"latitude":41.985859,"longitude":21.418374,"name":"Рамстор","parent":"Рамстор"},"type":"Feature"},{"geometry":{"coordinates":[21.46665378,41.98595444],"type":"Point"},"properties":{"address":"бул.Јане Сандански 71-а","cnt":10,"color":"#fee08b","id":77,"latitude":41.985954,"longitude":21.466654,"name":"Рамстор","parent":"Рамстор"},"type":"Feature"},{"geometry":{"coordinates":[21.455553,41.98752],"type":"Point"},"properties":{"address":"Милан Зечар 6","cnt":10,"color":"#fee08b","id":78,"latitude":41.98752,"longitude":21.455553,"name":"Рамстор","parent":"Рамстор"},"type":"Feature"},{"geometry":{"coordinates":[21.425609,41.9914166],"type":"Point"},"properties":{"address":"Маршал Тито 116-а","cnt":10,"color":"#fee08b","id":79,"latitude":41.991417,"longitude":21.425609,"name":"Рамстор","parent":"Рамстор"},"type":"Feature"},{"geometry":{"coordinates":[21.43617852,41.99432547],"type":"Point"},"properties":{"address":"11-ти Октомври 13","cnt":10,"color":"#fee08b","id":80,"latitude":41.994325,"longitude":21.436179,"name":"Рамстор","parent":"Рамстор"},"type":"Feature"},{"geometry":{"coordinates":[21.43593013,42.01611778],"type":"Point"},"properties":{"address":"Лазо Трповски 5","cnt":10,"color":"#fee08b","id":81,"latitude":42.016118,"longitude":21.43593,"name":"Рамстор","parent":"Рамстор"},"type":"Feature"},{"geometry":{"coordinates":[21.432963,41.992136],"type":"Point"},"properties":{"address":"Даме Груев 1-1","cnt":10,"color":"#fee08b","id":82,"latitude":41.992136,"longitude":21.432963,"name":"Рамстор експрес","parent":"Рамстор"},"type":"Feature"},{"geometry":{"coordinates":[21.415567,42.003709],"type":"Point"},"properties":{"address":"Франклин Рузвелт 68","cnt":8,"color":"#ffffbf","id":83,"latitude":42.003709,"longitude":21.415567,"name":"Рептил Маркет бр 1-Рузвелтова","parent":"Рептил Маркет"},"type":"Feature"},{"geometry":{"coordinates":[21.42874181,41.98374704],"type":"Point"},"properties":{"address":"Востаничка б.б.","cnt":8,"color":"#ffffbf","id":84,"latitude":41.983747,"longitude":21.428742,"name":"Рептил Маркет бр 2-Црниче","parent":"Рептил Маркет"},"type":"Feature"},{"geometry":{"coordinates":[21.4382422,41.98127471],"type":"Point"},"properties":{"address":"Тоне Томшиќ 25","cnt":8,"color":"#ffffbf","id":85,"latitude":41.981275,"longitude":21.438242,"name":"Рептил Маркет бр 3-Кисела Вода","parent":"Рептил Маркет"},"type":"Feature"},{"geometry":{"coordinates":[21.45330548,41.9848795],"type":"Point"},"properties":{"address":"Пандил Шишков 1 лок.1","cnt":8,"color":"#ffffbf","id":86,"latitude":41.984879,"longitude":21.453305,"name":"Рептил Маркет бр 4-Аеродром","parent":"Рептил Маркет"},"type":"Feature"},{"geometry":{"coordinates":[21.412445,42.000493],"type":"Point"},"properties":{"address":"бул.Партизански Одереди 59","cnt":8,"color":"#ffffbf","id":88,"latitude":42.000493,"longitude":21.412445,"name":"Рептил Маркет бр 6-Карпош 1","parent":"Рептил Маркет"},"type":"Feature"},{"geometry":{"coordinates":[21.370902,42.007635],"type":"Point"},"properties":{"address":"бул.Партизански Одреди 151 лок.7","cnt":8,"color":"#ffffbf","id":89,"latitude":42.007635,"longitude":21.370902,"name":"Рептил Маркет бр 7-Комплекс Порта Влае","parent":"Рептил Маркет"},"type":"Feature"},{"geometry":{"coordinates":[21.4458,42.013023],"type":"Point"},"properties":{"address":"Цветан Димов 202","cnt":1,"color":"#5e4fa2","id":91,"latitude":42.013023,"longitude":21.4458,"name":"Ролекс","parent":"Ролекс"},"type":"Feature"},{"geometry":{"coordinates":[21.503276,42.00718],"type":"Point"},"properties":{"address":"Јужноморавски бригади 2/20","cnt":1,"color":"#5e4fa2","id":92,"latitude":42.00718,"longitude":21.503276,"name":"С-Маркет","parent":"С-Маркет"},"type":"Feature"},{"geometry":{"coordinates":[21.467616,42.003848],"type":"Point"},"properties":{"address":"Бапчор 4","cnt":6,"color":"#abdda4","id":93,"latitude":42.003848,"longitude":21.467616,"name":"СП маркет-Автокоманда","parent":"СП маркет"},"type":"Feature"},{"geometry":{"coordinates":[21.44469023,42.03165147],"type":"Point"},"properties":{"address":"Александар Урдаревски 15","cnt":6,"color":"#abdda4","id":94,"latitude":42.031651,"longitude":21.44469,"name":"СП маркет-Бутел","parent":"СП маркет"},"type":"Feature"},{"geometry":{"coordinates":[21.41199,42.0034],"type":"Point"},"properties":{"address":"Руѓер Бошковиќ 3","cnt":6,"color":"#abdda4","id":95,"latitude":42.0034,"longitude":21.41199,"name":"СП маркет-Карпош","parent":"СП маркет"},"type":"Feature"},{"geometry":{"coordinates":[21.44354224,41.97717521],"type":"Point"},"properties":{"address":"Народни Херои 12","cnt":6,"color":"#abdda4","id":96,"latitude":41.977175,"longitude":21.443542,"name":"СП маркет-Расадник","parent":"СП маркет"},"type":"Feature"},{"geometry":{"coordinates":[21.40794023,42.00288277],"type":"Point"},"properties":{"address":"Шекспирова б.б.","cnt":24,"color":"#9e0142","id":110,"latitude":42.002883,"longitude":21.40794,"name":"Тинекс-Драмски","parent":"Тинекс"},"type":"Feature"},{"geometry":{"coordinates":[21.47539616,41.98015016],"type":"Point"},"properties":{"address":"бул.В.С.Бато 1/1","cnt":8,"color":"#ffffbf","id":87,"latitude":41.98015,"longitude":21.475396,"name":"Рептил маркет бр 5-Ново Лисиче","parent":"Рептил Маркет"},"type":"Feature"},{"geometry":{"coordinates":[21.5004185,42.0066236],"type":"Point"},"properties":{"address":"Методија Андонов Ченто б.б.","cnt":24,"color":"#9e0142","id":125,"latitude":42.006624,"longitude":21.500418,"name":"Тинекс-Ченто","parent":"Тинекс"},"type":"Feature"},{"geometry":{"coordinates":[21.436276,41.992524],"type":"Point"},"properties":{"address":"бул.Кочо Рацин 14","cnt":24,"color":"#9e0142","id":126,"latitude":41.992524,"longitude":21.436276,"name":"Тинекс-Шипад","parent":"Тинекс"},"type":"Feature"},{"geometry":{"coordinates":[21.419883,41.984329],"type":"Point"},"properties":{"address":"Тодор Александров 35-а","cnt":1,"color":"#5e4fa2","id":127,"latitude":41.984329,"longitude":21.419883,"name":"Трен маркет","parent":"Трен маркет"},"type":"Feature"},{"geometry":{"coordinates":[21.427362,41.990088],"type":"Point"},"properties":{"address":"Јордан Мијалков 40-а","cnt":1,"color":"#5e4fa2","id":128,"latitude":41.990088,"longitude":21.427362,"name":"Туш","parent":"Туш"},"type":"Feature"},{"geometry":{"coordinates":[21.40836644,41.99778334],"type":"Point"},"properties":{"address":"Анкарска 21","cnt":8,"color":"#ffffbf","id":90,"latitude":41.997783,"longitude":21.408366,"name":"Рептил маркет бр 9-Тафталиџе 1","parent":"Рептил Маркет"},"type":"Feature"},{"geometry":{"coordinates":[21.4434047,42.0194477],"type":"Point"},"properties":{"address":"Архиепископ Доситеј 4","cnt":6,"color":"#abdda4","id":67,"latitude":42.019448,"longitude":21.443405,"name":"Принц 2","parent":"Принц"},"type":"Feature"},{"geometry":{"coordinates":[21.390361,42.00123],"type":"Point"},"properties":{"address":"Московска 15","cnt":6,"color":"#abdda4","id":97,"latitude":42.00123,"longitude":21.390361,"name":"СП маркет-Тафталиџе","parent":"СП маркет"},"type":"Feature"},{"geometry":{"coordinates":[21.4339748,41.9977339],"type":"Point"},"properties":{"address":"Св.Кирил и Методиј 20","cnt":6,"color":"#abdda4","id":98,"latitude":41.997734,"longitude":21.433975,"name":"СП Маркет-Центар","parent":"СП маркет"},"type":"Feature"},{"geometry":{"coordinates":[21.3626816,42.0069209],"type":"Point"},"properties":{"address":"Ѓорче Петров 7","cnt":1,"color":"#5e4fa2","id":99,"latitude":42.006921,"longitude":21.362682,"name":"СП Планет","parent":"СП Планет"},"type":"Feature"},{"geometry":{"coordinates":[21.4409797,42.0062001],"type":"Point"},"properties":{"address":"Места б.б.","cnt":4,"color":"#66c2a5","id":100,"latitude":42.0062,"longitude":21.44098,"name":"Супер Аге 10","parent":"Супер Аге"},"type":"Feature"},{"geometry":{"coordinates":[21.42454147,42.0426957],"type":"Point"},"properties":{"address":"Индира Ганди б.б.","cnt":4,"color":"#66c2a5","id":101,"latitude":42.042696,"longitude":21.424541,"name":"Супер Аге 5","parent":"Супер Аге"},"type":"Feature"},{"geometry":{"coordinates":[21.44403203,42.00978677],"type":"Point"},"properties":{"address":"Цветан Димов б.б.","cnt":4,"color":"#66c2a5","id":102,"latitude":42.009787,"longitude":21.444032,"name":"Супер Аге 6","parent":"Супер Аге"},"type":"Feature"},{"geometry":{"coordinates":[21.44505501,42.03170726],"type":"Point"},"properties":{"address":"Црвени Брегови б.б.","cnt":4,"color":"#66c2a5","id":103,"latitude":42.031707,"longitude":21.445055,"name":"Супер Аге 7","parent":"Супер Аге"},"type":"Feature"},{"geometry":{"coordinates":[21.40893264,41.99775212],"type":"Point"},"properties":{"address":"Багдатска 36","cnt":24,"color":"#9e0142","id":104,"latitude":41.997752,"longitude":21.408933,"name":"Супер Тинекс- Капиштец","parent":"Тинекс"},"type":"Feature"},{"geometry":{"coordinates":[21.47749901,41.99652987],"type":"Point"},"properties":{"address":"Перо Наков 108","cnt":24,"color":"#9e0142","id":105,"latitude":41.99653,"longitude":21.477499,"name":"Супер Тинекс-Годел","parent":"Тинекс"},"type":"Feature"},{"geometry":{"coordinates":[21.40661359,41.99659366],"type":"Point"},"properties":{"address":"Бранко Заревски 7","cnt":24,"color":"#9e0142","id":106,"latitude":41.996594,"longitude":21.406614,"name":"Тинекс - Драчево","parent":"Тинекс"},"type":"Feature"},{"geometry":{"coordinates":[21.46545053,41.98438505],"type":"Point"},"properties":{"address":"бул.Јане Сандански б.б.","cnt":24,"color":"#9e0142","id":107,"latitude":41.984385,"longitude":21.465451,"name":"Тинекс-Аеродром","parent":"Тинекс"},"type":"Feature"},{"geometry":{"coordinates":[21.422202,41.999164],"type":"Point"},"properties":{"address":"бул.Партизански Одреди 18-а","cnt":24,"color":"#9e0142","id":108,"latitude":41.999164,"longitude":21.422202,"name":"Тинекс-Буњаковец","parent":"Тинекс"},"type":"Feature"},{"geometry":{"coordinates":[21.41123772,41.99038199],"type":"Point"},"properties":{"address":"Питу Гули б.б.","cnt":24,"color":"#9e0142","id":109,"latitude":41.990382,"longitude":21.411238,"name":"Тинекс-Водно","parent":"Тинекс"},"type":"Feature"}],"type":"FeatureCollection"}